geocode_name;lat;lon;factories
tirupur;11.11541;77.35456;83
istanbul;41.01384;28.94966;46
dhaka;23.7104;90.40744;44
ningbo;29.87819;121.54945;37
hangzhou;30.29365;120.16142;37
dongguan;23.01797;113.74866;33
wenzhou;27.99942;120.66682;27
noida;28.58;77.33;26
quanzhou;25.93545;111.06752;24
yiwu;29.31506;120.07676;24
taizhou;28.66266;121.43312;21
narayanganj;23.61352;90.50298;17
qingdao;36.06488;120.38042;16
phnom penh;11.56245;104.91601;15
suzhou;31.30408;120.59538;14
shaoxing;30.00237;120.57864;13
guangzhou;23.11667;113.25;12
gurgaon;28.4601;77.02635;12
nantong;32.03028;120.87472;12
fuzhou;27.95999;116.33333;12
shantou;23.36814;116.71479;12
bangalore;12.97194;77.59369;12
jiangyin;31.91102;120.26302;11
yangzhou;32.39722;119.43583;11
shenzhen;22.54554;114.0683;10
savar;47.23088;16.62155;10
huizhou;23.11147;114.41523;9
yantai;30.1467;107.3196;8
chittagong;22.3384;91.83168;8
jiaxing;30.7522;120.75;8
karachi;24.8608;67.0104;8
zhongshan;34.93806;105.8775;7
weihai;37.50914;122.11356;7
chaozhou;23.65396;116.62262;7
yangon;16.80528;96.15611;6
yancheng;29.74357;103.56679;6
huzhou;30.8703;120.0933;6
changshu;31.64615;120.74221;6
lahore;31.558;74.35071;6
erode;11.3428;77.72741;6
haiphong;20.86481;106.68345;5
jiangmen;22.58333;113.08333;5
faisalabad;31.41554;73.08969;5
sancaktepe;41.00244;29.23187;4
nanjing;32.06167;118.77778;4
tianjin;39.14222;117.17667;4
shengzhou;29.59583;120.81667;4
coimbatore;11.00555;76.96612;3
quzhou;28.95944;118.86861;3
suqian;33.94917;118.29583;3
chennai;13.08784;80.27847;3
ho chi minh;10.82302;106.62965;3
chizhou;30.66134;117.47783;3
jinjiang;19.72878;110.00851;3
jining;35.405;116.58139;3
shanghai;31.22222;121.45806;3
xiamen;24.47979;118.08187;3
tekirdag;40.9781;27.51101;3
kampong speu;11.45332;104.52085;3
wuxi;26.5844;111.859;3
mersin;36.81196;34.63886;2
lu'an;-8.83682;13.23432;2
kanpur;26.46523;80.34975;2
lishui;29.83048;108.64355;2
linyi;35.06306;118.34278;2
mumbai;19.07283;72.88261;2
takeo;33.19009;130.02084;2
mymensingh;24.75636;90.40646;2
jinhua;29.10678;119.64421;2
weifang;36.71;119.10194;2
xianning;29.84347;114.32201;2
dongyang;29.83291;106.45066;2
zhuji;29.71877;120.24233;2
batman;37.88738;41.13221;2
shangrao;28.45179;117.94287;2
raiwind;31.24895;74.21534;2
bursa;40.19559;29.06013;2
chenzhou;25.8;113.03333;2
delhi;42.27814;-74.91599;2
tongxiang;30.63287;120.56081;2
mirpur;33.14782;73.75187;2
esenyurt;41.02697;28.67732;2
panipat;29.38747;76.96825;2
faridabad;28.41124;77.31316;2
vapi;20.37175;72.90493;2
hai duong;20.94099;106.33302;2
haining;30.53629;120.68638;2
sousse;35.82539;10.63699;1
sukabumi;-6.91806;106.92667;1
semenyih;2.9516;101.843;1
sivas;39.74833;37.01611;1
semarang;-6.99306;110.42083;1
sonipat;28.99478;77.01937;1
adapazarı;40.78056;30.40333;1
tai'an;30.79554;108.65921;1
xinxiang;30.49999;108.27278;1
zhumadian;32.97944;114.02944;1
zhoukou;33.63333;114.63333;1
zhenjiang;32.21086;119.45508;1
zhaoqing;23.04893;112.46091;1
zhangzhou;24.51333;117.65556;1
zaozhuang;34.86472;117.55417;1
yueyang;29.37455;113.09481;1
yozgat;39.82;34.80444;1
yiyang;28.58917;112.32833;1
yangjiang;21.85563;111.96272;1
xining;36.62554;101.75739;1
tainan;22.99083;120.21333;1
wuhu;31.33728;118.37351;1
valsad;20.61013;72.93428;1
tumakuru;13.34136;77.1022;1
trincomalee;8.5778;81.2289;1
tokat;40.31389;36.55444;1
tiruchengode;11.38016;77.89444;1
tien lang;20.72464;106.55391;1
tianchang;32.68497;119.00932;1
tarapur;19.86499;72.68426;1
tanger;35.76727;-5.79975;1
tongi;36.2844;127.6199;1
mandalay;21.97473;96.08359;1
sanming;26.24861;117.61861;1
giresun;40.91698;38.38741;1
ganzhou;25.84664;114.9326;1
gandhidham;23.08333;70.13333;1
gampaha;7.0897;79.9925;1
foshan;23.02677;113.13148;1
etawah;26.77615;79.02133;1
edirne;41.67719;26.55597;1
duzce;35.05515;33.78388;1
dezhou;27.40809;102.18001;1
denizli;37.77417;29.0875;1
danyang;26.35102;119.4803;1
dadri;28.59166;76.27161;1
corlu;41.15917;27.8;1
colombo;6.93548;79.84868;1
chuzhou;32.32194;118.29778;1
changzhou;23.48492;111.27413;1
cekmece;41.01284;28.53824;1
cankiri;40.59995;33.6153;1
cangzhou;38.31667;116.86667;1
can tho;10.03711;105.78825;1
burdur;37.72028;30.29083;1
boyolali;-7.53306;110.59583;1
bogor;-6.59444;106.78917;1
beylikdüzü;40.982;28.6399;1
bandung;-6.92222;107.60694;1
bago;17.33521;96.48135;1
baglar;37.98599;41.66756;1
bac ninh;21.18608;106.07631;1
ghaziabad;28.66535;77.43915;1
haiyan;28.73632;109.12367;1
salé;31.78336;35.23388;1
ho chi minh city;10.82302;106.62965;1
rongxian;22.85794;110.55079;1
ratnapura;6.6858;80.4036;1
rangpur;25.74664;89.25166;1
quang xuong;19.72948;105.78273;1
pune;18.51957;73.85535;1
phu ninh;21.08333;105.95;1
ninh binh;20.25809;105.97965;1
ningde;26.66167;119.52278;1
narsingdi;23.92298;90.71768;1
my tho;10.36004;106.35996;1
mirzapur;24.10287;90.09841;1
anqing;30.51365;117.04723;1
liyang;29.6518;111.752;1
lianyungang;34.59845;119.21556;1
laizhou;37.18073;119.94217;1
krishnagiri;12.51921;78.21382;1
kolhapur;16.69563;74.23167;1
karur;10.95771;78.08095;1
karabuk;41.20488;32.62768;1
jiujiang;29.70475;116.00206;1
jieyang;23.5418;116.36581;1
ji'an;26.86879;100.22072;1
jaipur;26.91962;75.78781;1
izmir;38.41273;27.13838;1
huong tra;16.52539;107.4755;1
huidong;26.63745;102.57568;1
hoai nhon;14.42907;109.0156;1
zonguldak;41.45139;31.79305;1
